[{"name":"Brixton Market","address":"Electric Avenue Brixton,London SW9 8JX","lat":51.4622233,"lng":-0.1140086},{"name":"Tesco West Bromwich Extra","address":"46 New St West Bromwich,West Midlands B70 0HW UK","lat":52.5371813,"lng":-2.013798},{"name":"Piccolo Bar","address":"Piccolo Bar 167A Putney High St London SW15 1RT United Kingdom","lat":51.4610877,"lng":-0.2166409},{"name":"El Rincon Quiteno","address":"El Rincon Quiteno 235 Holloway Rd London N7 8HG United Kingdom","lat":51.5514893,"lng":-0.111075},{"name":"Arepa & Co","address":"58a De Beauvoir Crescent London N1 5SL United Kingdom","lat":51.5371326,"lng":-0.0799164},{"name":"The Food Station","address":"75 N Station Rd Colchester,Essex CO1 1SB United Kingdom","lat":51.8961962,"lng":0.8960349},{"name":"La Grocerya","address":"Trinity St Colchester Essex,UK","lat":51.8886234,"lng":0.8992349},{"name":"Jeans Deli/Cafe","address":"236 Upper Richmond Rd London SW15 6TG UK","lat":51.4614035,"lng":-0.2190001},{"name":"Sun Food","address":"403 Mare St London E8 1HY United Kingdom","lat":51.54907799999999,"lng":-0.0553242},{"name":"Casa de Carnes","address":"223 Mare Street,Dalston London,E8 3QE","lat":51.5418479,"lng":-0.055416},{"name":"Tesco North Finchley","address":"Coppetts Centre N Circular Rd North Finchley,London N12 0SH,United Kingdom","lat":51.6066292,"lng":-0.154342},{"name":"Las Iguanas (Manchester)","address":"84 Deansgate Manchester M3 2ER,United Kingdom","lat":53.4824705,"lng":-2.2472739},{"name":"Spice of Asia","address":"489 George St Aberdeen AB25 1HL United Kingdom","lat":57.15466780000001,"lng":-2.1068611},{"name":"Rye Lane","address":"Peckham,London SE15","lat":51.47032369999999,"lng":-0.0673872},{"name":"Afro Caribbean Asian Store","address":"323 N End Rd Fulham,London SW6 1NN UK","lat":51.4851635,"lng":-0.2022038},{"name":"Las Iguanas (Reading)","address":"Las Iguanas 17a Riverside The Oracle Reading RG1 2AG,United Kingdom","lat":51.452648,"lng":-0.9708951},{"name":"La Chatica","address":"La Chatica Caf√© 2 Elephant Rd London SE17 1LB United Kingdom","lat":51.4933406,"lng":-0.0988066},{"name":"Latin Stop","address":"4-6 High Rd London N22 6BX United Kingdom","lat":51.59075540000001,"lng":-0.1034738},{"name":"Tesco Tottenham","address":"230 High Rd London N15 4AJ United Kingdom","lat":51.5884403,"lng":-0.0710755},{"name":"Grey Oriental Foods","address":"25A High St Town Centre Woking GU21 6BW,United Kingdom","lat":51.3180206,"lng":-0.5593092000000001},{"name":"Ahmed Foodstore","address":"Ahmed Foodstore 95 Charminster Rd Bournemouth,Dorset BH8 8UH United Kingdom","lat":50.7355038,"lng":-1.8673744},{"name":"Europe Mini Market","address":"6 St Michaels Rd Bournemouth,Dorset BH2 5DX United Kingdom","lat":50.7193863,"lng":-1.8853949},{"name":"Fulham","address":"London SW6 1NN","lat":51.48490839999999,"lng":-0.2018996},{"name":"Tesco Extra Streatham","address":"Tesco Lambeth 384 Streatham High Rd London SW16 6HP","lat":51.4249387,"lng":-0.1312298},{"name":"Brentford African Supermarket","address":"African Supermarket Albany Parade High St Brentford TW8 0JW","lat":51.4858681,"lng":-0.3001732},{"name":"Tropical Mini Market","address":"Tropical Mini Market The Mall Wood Green 159 High Rd Wood Green London N22 6YQ","lat":51.59421529999999,"lng":-0.109852},{"name":"Los Arrieros","address":"Walworth Rd London SE1 6SW","lat":51.4926021,"lng":-0.0985045},{"name":"M.k. Super Market","address":"18 Blackstock Rd London N4 2DW","lat":51.5640365,"lng":-0.1037034},{"name":"K M Butchers","address":"29 Stroud Green Rd Stroud Green,London N4 3EF","lat":51.5672151,"lng":-0.1085163},{"name":"Supermecardo Portugal","address":"396 Harrow Rd London W9 2HU","lat":51.5234839,"lng":-0.1966907},{"name":"Malik Stores","address":"24 Stapleton Rd Bristol,Avon BS5 0QX United Kingdom","lat":51.45953309999999,"lng":-2.5762513},{"name":"Bristol Sweet Mart","address":"Bristol Sweet Mart,St. Marks Rd,Bristol,United Kingdom","lat":51.46775,"lng":-2.564396},{"name":"Las Iguanas","address":"Unit 27,Ground Floor Mermaid Quay Cardiff CF10 5BZ,United Kingdom","lat":51.4635816,"lng":-3.1658766},{"name":"La Bodeguita","address":"La Bodeguita Elephant and Castle London SE1 6TE United Kingdom","lat":51.4959129,"lng":-0.1004748},{"name":"Tesco","address":"Tesco Surrey Quays Extra Surrey Quays Shopping Centre,Redriff Rd Rotherhithe,London SE16 7LL United Kingdom","lat":51.4945239,"lng":-0.0462548},{"name":"Tahir Halal Meat","address":"Tahir Halal Meat 9 Junction Rd London N19 5QT United Kingdom","lat":51.56518149999999,"lng":-0.1345227},{"name":"Bullring Markets","address":"Edgbaston St Birmingham B5 4QL United Kingdom","lat":52.4765524,"lng":-1.8947076},{"name":"Tesco Aston Lane Superstore","address":"Tesco Aston Lane Superstore 278-299 Aston Ln Birmingham,West Midlands B6 6QR United Kingdom","lat":52.5126935,"lng":-1.8869262},{"name":"Seven Sisters Greengrocers","address":"Seven Sisters Greengrocers 70 Seven Sisters Rd London N7 6AE United Kingdom","lat":51.55919650000001,"lng":-0.1166392},{"name":"Wembley Extra","address":"Great Central Way London NW10 0TL United Kingdom","lat":51.5547287,"lng":-0.254808},{"name":"Tesco Southall Hayes Bulls Bridge Extra","address":"Bulls Bridge Industrial Estate,Hayes Rd London UB2 5LN United Kingdom","lat":51.4990258,"lng":-0.4078242},{"name":"Al-Medina Store","address":"Oxford Rd City Centre Reading RG1 7PL,United Kingdom","lat":51.4556516,"lng":-0.9889667},{"name":"Tesco Lewisham Superstore","address":"209 Lewisham Rd Lewisham,London SE13 7PY United Kingdom","lat":51.466567,"lng":-0.0126262},{"name":"Taj the Grocer","address":"12 Haslett Ave W Town Centre Crawley RH10 1HS,United Kingdom","lat":51.1141644,"lng":-0.187998},{"name":"Taj The Grocer","address":"98-99 Western Rd Brighton BN1 2LB United Kingdom","lat":50.8247152,"lng":-0.1524802},{"name":"Lupe Pintos","address":"24 Leven St West End Edinburgh EH3 9LJ,United Kingdom","lat":55.9412783,"lng":-3.2033377},{"name":"Tesco Slough Wellington Extra","address":"Brunel Way Wellington St Slough SL1 1XW,United Kingdom","lat":51.510364,"lng":-0.592313},{"name":"Spanglish Tiendita","address":"30 Newgate St Newcastle upon Tyne NE1 United Kingdom","lat":54.9715049,"lng":-1.616507},{"name":"All Seasons Food","address":"4 Norfolk St City Centre Cambridge CB1 2LF,United Kingdom","lat":52.2047238,"lng":0.1368842},{"name":"International Foods Ltd","address":"168-174 Portswood Rd Southampton SO17 2NJ United Kingdom","lat":50.9261124,"lng":-1.3920878},{"name":"R Garcia and Sons","address":"248-250 Portobello Rd London W11 1LL United Kingdom","lat":51.5179834,"lng":-0.2064631},{"name":"Mattas","address":"51 Bold St Liverpool Chinatown Liverpool L1 4EU,United Kingdom","lat":53.4032701,"lng":-2.9782745},{"name":"Kirkgate Market","address":"irkgate Market 28-34 George St Leeds,West Yorkshire LS2 7HY United Kingdom","lat":53.7975006,"lng":-1.5386772},{"name":"Asian Bazaar","address":"43 Magdalen St,Norwich NR3 1LQ","lat":52.63478749999999,"lng":1.2967169},{"name":"Afro Supermarket","address":"87 Gravel St,City Centre,Leicester LE1 3AG","lat":52.639772,"lng":-1.132782},{"name":"Las Iguanas","address":"The Great Hall,intu Trafford Centre,The Trafford Centre,Manchester M17 8AA","lat":53.4648611,"lng":-2.3489169},{"name":"Gurbet","address":"604 Seven Sisters Rd,South Tottenham,London N15 6HT","lat":51.5779122,"lng":-0.0824015},{"name":"Mathews Foods","address":"17-19 Gellatly St,Dundee DD1 3DY","lat":56.4619625,"lng":-2.9663518},{"name":"Global Grocers & Butchers","address":"9 Guthrie St,Dundee DD1 5DR","lat":56.4611087,"lng":-2.9805804},{"name":"Yawee Foods","address":"8 Barrack St,Colchester,England","lat":51.885434,"lng":0.9140965999999999},{"name":"Portuguese Flavours","address":"25B Clemens Street Leamington Spa Warwickshire CV31 2DP","lat":52.2832079,"lng":-1.5314681},{"name":"Bella Cafe","address":"45 Regent Grove,Royal Leamington Spa,Leamington Spa,Warwickshire CV32 4AP","lat":52.29034189999999,"lng":-1.5326077},{"name":"Las Iguanas","address":"Quayside,Cambridge CB5 8AB","lat":52.2101778,"lng":0.117212},{"name":"Worldwide Foods","address":"401 Great Western St,Manchester M14 4AH","lat":53.45739409999999,"lng":-2.2269376},{"name":"Donde Carlos","address":"143 Goldhawk Rd,London W12 8EN","lat":51.5012897,"lng":-0.2314703},{"name":"M&T Continental Grocery","address":"26 St Andrews Street,Dundee,DD1 2EX","lat":56.46358619999999,"lng":-2.9667129},{"name":"Pau Brazil","address":"89 Mount Pleasant,Reading,West Berkshire RG1 2TF","lat":51.4468128,"lng":-0.9658922},{"name":"Aberdeen","address":"Aberdeen City AB24 5AE","lat":57.15121569999999,"lng":-2.0943417},{"name":"F Centre","address":"190B Station Rd,Edgware HA8 7AS","lat":51.6139534,"lng":-0.275644},{"name":"Mackinleys Supermarket","address":"12 Byram St,Huddersfield,West Yorkshire HD1 1DR","lat":53.6478152,"lng":-1.7817223},{"name":"Sun Wah Mini-Mart","address":"33 Barnton St,Stirling FK8 1HF","lat":56.1202394,"lng":-3.9383489},{"name":"International Cash & Carry","address":"160 Shepherds Bush Market,London W12 8DF","lat":51.5049394,"lng":-0.2264316},{"name":"Las Iguanas","address":"Unit 3 Coliseum Leisure Park,Cheshire Oaks,Ellesmere Port,Cheshire CH65 9HD","lat":53.2642302,"lng":-2.8873841}]